[
  {
    "id": 1,
    "title": "台北當代藝術展",
    "date": "2025-01-12 ~ 2025-02-12",
    "location": "台北市信義區",
    "city": "台北市",
    "category": "藝術",
    "image": "img/展覽範例圖.png",
    "description": "一場展示當代藝術作品的展覽，包含新媒體與裝置藝術。"
  },
  {
    "id": 2,
    "title": "未來科技探索展",
    "date": "2025-03-20 ~ 2025-05-10",
    "location": "台中市西屯區",
    "city": "台中市",
    "category": "科技",
    "image": "img/展覽範例圖.png",
    "description": "展示 AI、機器人與未來科技應用的科技展。"
  },
  {
    "id": 3,
    "title": "自然之聲：生態與藝術的對話",
    "date": "2025-03-01 ~ 2025-06-30",
    "location": "高雄流行音樂中心",
    "city": "高雄市",
    "category": "音樂",
    "image": "img/展覽範例圖.png",
    "description": "以自然生態為核心，結合音景、互動裝置與藝術創作的展覽。"
  },
  {
    "id": 4,
    "title": "色彩的秘密：沉浸式光影藝術展",
    "date": "2025-04-15 ~ 2025-08-20",
    "location": "華山 1914 文創園區",
    "city": "台北市",
    "category": "光影",
    "image": "img/展覽範例圖.png",
    "description": "以光影、投影與聲音構成的多媒體體驗展。"
  },
  {
    "id": 5,
    "title": "幻象之境：VR 未來沉浸展",
    "date": "2025-05-01 ~ 2025-09-01",
    "location": "松山文創園區",
    "city": "台北市",
    "category": "科技",
    "image": "img/展覽範例圖.png",
    "description": "結合虛擬實境、互動投影，帶來全沉浸式科技體驗。"
  },
  {
    "id": 6,
    "title": "植物的秘密語言：自然觀察展",
    "date": "2025-03-20 ~ 2025-07-15",
    "location": "台中國家歌劇院",
    "city": "台中市",
    "category": "植物",
    "image": "img/展覽範例圖.png",
    "description": "透過藝術與科學結合，呈現植物行為、聲音與生命訊號。"
  },
  {
    "id": 7,
    "title": "漫畫宇宙：角色設計與創作特展",
    "date": "2025-04-10 ~ 2025-08-30",
    "location": "駁二藝術特區",
    "city": "高雄市",
    "category": "科技",
    "image": "img/展覽範例圖.png",
    "description": "展示漫畫角色從草稿到動畫化的完整創作過程。"
  },
  {
    "id": 8,
    "title": "時間博物館：古董與故事的相遇",
    "date": "2025-02-01 ~ 2025-06-15",
    "location": "士林科教館",
    "city": "台北市",
    "category": "科技",
    "image": "img/展覽範例圖.png",
    "description": "展出古董鐘錶、懷錶、機械構造與時間的歷史演變。"
  }
]